ID,Name,Category,Cuisine,Level,Lat,Lng
LPR-01,Ajisen Ramen,Casual,Japanese,Level 1,14.4421,120.9935
LPR-02,Blue Seas Seafood,Casual,Seafood,Level 2,14.4423,120.9937
LPR-03,Gerry’s Grill,Casual,Filipino,Level 2,14.4424,120.9938
LPR-04,Amelito’s Sizzling,Fast Casual,Filipino,Level 2,14.4425,120.9939
LPR-05,Grillily,Casual,Filipino Grill,Level 1,14.442,120.9934
LPR-06,Starbucks,Cafe,International,Level 1,14.4419,120.9933